{"results":[{"UUID":"561558690751c","name":"Andy Warhol Museum","address1":"117 Sandusky Street","address2":null,"city":"Pittsburgh","region":"PA","country":"USA","postalcode":null,"latitude":"40.448105","longitude":"-80.002221","url":null,"phone":null,"creationdate":"1444706062","modificationdate":null,"type":null,"id":"109"},{"UUID":"561558693cc8b","name":"Avalon Hollywood","address1":"1735 North Vine Street","address2":null,"city":"Los Angeles","region":"CA","country":"USA","postalcode":null,"latitude":null,"longitude":null,"url":null,"phone":null,"creationdate":"1444706062","modificationdate":null,"type":null,"id":"172"},{"UUID":"5615586ad198c","name":"Drai's Hollywood","address1":"6250 Hollywood Blvd\r\n(12th Floor of W Hotel)","address2":null,"city":"Los Angeles","region":"CA","country":"USA","postalcode":null,"latitude":null,"longitude":null,"url":null,"phone":null,"creationdate":"1444706063","modificationdate":null,"type":null,"id":"729"},{"UUID":"5615586ae4ccc","name":"Earl and Maggie Holland School of Visual and Performing Arts","address1":"518 South Fountain Street","address2":null,"city":"Cape Girardeau","region":"MO","country":"USA","postalcode":null,"latitude":"37.296495","longitude":"-89.523323","url":null,"phone":null,"creationdate":"1444706063","modificationdate":null,"type":null,"id":"751"},{"UUID":"5615586b43392","name":"Fox Hollow","address1":"4617 Nett St","address2":null,"city":"Houston","region":"TX","country":"USA","postalcode":null,"latitude":"29.771882","longitude":"-95.407552","url":null,"phone":null,"creationdate":"1444706063","modificationdate":null,"type":null,"id":"918"},{"UUID":"5615586be5239","name":"Hollywood American Legion Hall","address1":"2035 N Highland Ave","address2":null,"city":"Los Angeles","region":"CA","country":"USA","postalcode":null,"latitude":"34.107468","longitude":"-118.337528","url":null,"phone":null,"creationdate":"1444706063","modificationdate":null,"type":null,"id":"1111"},{"UUID":"56155871b311e","name":"Hollywood Forever Cemetary","address1":"6000 Santa Monica Blvd","address2":null,"city":"Los Angeles","region":"CA","country":"USA","postalcode":"90038","latitude":"34.090863","longitude":"-118.293880","url":"www.hollywoodforever.com","phone":"(323) 469-1181","creationdate":"1444706066","modificationdate":null,"type":"venue","id":"3542"},{"UUID":"5615586be6032","name":"Hollywood Palladium","address1":"6215 W Sunset Blvd","address2":null,"city":"Los Angeles","region":"CA","country":"USA","postalcode":null,"latitude":"34.097996","longitude":"-118.333822","url":null,"phone":null,"creationdate":"1444706063","modificationdate":null,"type":null,"id":"1112"},{"UUID":"5615586be6ea3","name":"Hollywood Roosevelt Hotel","address1":"7000 Hollywood Blvd","address2":null,"city":"Los Angeles","region":"CA","country":"USA","postalcode":null,"latitude":"34.101272","longitude":"-118.341660","url":null,"phone":null,"creationdate":"1444706063","modificationdate":null,"type":null,"id":"1113"},{"UUID":"5615586be7be6","name":"Holocene","address1":"1001 SE Morrison","address2":null,"city":"Portland","region":"OR","country":"USA","postalcode":null,"latitude":null,"longitude":null,"url":null,"phone":null,"creationdate":"1444706063","modificationdate":null,"type":null,"id":"1114"},{"UUID":"5615586be8a01","name":"Holy Mountain","address1":"617 E. 7th Street","address2":null,"city":"Austin","region":"TX","country":"USA","postalcode":null,"latitude":"30.267254","longitude":"-97.736589","url":null,"phone":null,"creationdate":"1444706063","modificationdate":null,"type":null,"id":"1115"},{"UUID":"56155871b3e7d","name":"Holy Trinity Church","address1":"Boar Ln","address2":null,"city":"Leeds","region":"England","country":"UK","postalcode":"LS1 6HW","latitude":"53.795927","longitude":"-1.543764","url":"holytrinityleeds.co.uk","phone":"+44 7961 025581","creationdate":"1444706066","modificationdate":null,"type":"venue","id":"3543"},{"UUID":"5615586c6c086","name":"King King Hollywood","address1":"6555 Hollywood Boulevard","address2":null,"city":"Los Angeles","region":"CA","country":"USA","postalcode":null,"latitude":"34.101600","longitude":"-118.331045","url":null,"phone":null,"creationdate":"1444706064","modificationdate":null,"type":null,"id":"1263"},{"UUID":"5615586d235fc","name":"Masonic Lodge at Hollywood Forever Cemetery","address1":"6000 Santa Monica Boulevard","address2":null,"city":"Los Angeles","region":"CA","country":"USA","postalcode":null,"latitude":"34.090863","longitude":"-118.293880","url":null,"phone":null,"creationdate":"1444706064","modificationdate":null,"type":null,"id":"1506"},{"UUID":"5615586d6cfb8","name":"Mmhmm Club at The Standard Hotel Hollywood","address1":"8300 Sunset Blvd","address2":null,"city":"West Hollywood","region":"CA","country":"USA","postalcode":null,"latitude":null,"longitude":null,"url":null,"phone":null,"creationdate":"1444706065","modificationdate":null,"type":null,"id":"1593"},{"UUID":"5615586d9e973","name":"New Holland Brewing Co. Hatter Days","address1":"66 E 8th St","address2":null,"city":"Holland","region":"MI","country":"USA","postalcode":"49423","latitude":"42.790071","longitude":"-86.104154","url":"newhollandbrew.com","phone":"(616) 355-6422","creationdate":"1444706065","modificationdate":null,"type":null,"id":"1680"},{"UUID":"5615586e35713","name":"Quail Hollow Golf Course","address1":"6225 Old Pasco Road","address2":null,"city":"Wesley Chapel","region":"FL","country":"USA","postalcode":null,"latitude":"28.248536","longitude":"-82.355206","url":null,"phone":null,"creationdate":"1444706065","modificationdate":null,"type":null,"id":"1929"},{"UUID":"5615586ee13df","name":"Soho House West Hollywood","address1":"9200 Sunset Boulevard\r\nSuite 817","address2":null,"city":"West Hollywood","region":"CA","country":"USA","postalcode":null,"latitude":null,"longitude":null,"url":null,"phone":null,"creationdate":"1444706065","modificationdate":null,"type":null,"id":"2209"},{"UUID":"561558700767f","name":"The Holland Project","address1":"140 Vesta St.","address2":null,"city":"Reno","region":"NV","country":"USA","postalcode":null,"latitude":"39.509817","longitude":"-119.804461","url":null,"phone":null,"creationdate":"1444706065","modificationdate":null,"type":null,"id":"2619"},{"UUID":"56155870084e8","name":"The Hollow","address1":"79 North Pearl St","address2":null,"city":"Albany","region":"NY","country":"USA","postalcode":null,"latitude":"42.652308","longitude":"-73.750761","url":null,"phone":null,"creationdate":"1444706065","modificationdate":null,"type":null,"id":"2620"},{"UUID":"561558700934b","name":"The Hollywood Forever Cemetery","address1":"6000 Santa Monica Blvd.","address2":null,"city":"Los Angeles","region":"CA","country":"USA","postalcode":null,"latitude":"34.090863","longitude":"-118.293880","url":null,"phone":null,"creationdate":"1444706065","modificationdate":null,"type":null,"id":"2621"},{"UUID":"56155870776a1","name":"The Rabbit Hole at Gilt","address1":"31 Mercer St ","address2":null,"city":"Toronto","region":"ON","country":"Canada","postalcode":null,"latitude":"43.645574","longitude":"-79.390513","url":null,"phone":null,"creationdate":"1444706066","modificationdate":null,"type":null,"id":"2774"},{"UUID":"561558707f4eb","name":"The Spare Room - Hollywood Roosevelt Hotel","address1":"7000 Hollywood Blvd","address2":null,"city":"Los Angeles","region":"CA","country":"USA","postalcode":null,"latitude":"34.101272","longitude":"-118.341660","url":null,"phone":null,"creationdate":"1444706066","modificationdate":null,"type":null,"id":"2837"},{"UUID":"561558709ab1a","name":"The Whole Music Club","address1":"Coffman Memorial Union 126\r\n300 Washington Avenue Southeast","address2":null,"city":"Minneapolis","region":"MN","country":"USA","postalcode":null,"latitude":"44.973676","longitude":"-93.223712","url":null,"phone":null,"creationdate":"1444706066","modificationdate":null,"type":null,"id":"2902"},{"UUID":"56155872b66c9","name":"This Ain't Hollywood","address1":"345 James St N","address2":null,"city":"Hamilton","region":"Ontario","country":"Canada","postalcode":"L8L 1H3","latitude":"43.264992","longitude":"-79.865610","url":"www.thisainthollywood.ca","phone":"+1 289-396-3911","creationdate":"1444706067","modificationdate":null,"type":"venue","id":"4096"},{"UUID":"56155870a4a99","name":"This Aint Hollywood","address1":"345 James Street North","address2":null,"city":"Hamilton","region":"ON","country":"Canada","postalcode":null,"latitude":"43.264992","longitude":"-79.865610","url":null,"phone":null,"creationdate":"1444706066","modificationdate":null,"type":null,"id":"2925"}],"name":"hol"}